{
"type": "FeatureCollection",
                                                                              
"features": [
{ "type": "Feature", "properties": { "NAMES_": "PLANTATION ELEMENTARY", "ADDRESSES": "651 NW 42ND AVE", "ZIP": 33317.000000, "CITY_ID": "PL", "PHONE": "797-4290", "FAX": "797-4686", "TYPE": "Primary", "OTHER": null, "CAPACITY": 395, "LAT": 26.130936, "LON": -80.205213, "USNG": "17R NJ 7945390427" }, "geometry": { "type": "Point", "coordinates": [ -80.205212886938838, 26.130936285526808 ] } },
{ "type": "Feature", "properties": { "NAMES_": "CORAL GLADES HIGH", "ADDRESSES": "2700 SPORTSPLEX DR", "ZIP": 33065.000000, "CITY_ID": "CS", "PHONE": "322-1250", "FAX": null, "TYPE": "Primary", "OTHER": null, "CAPACITY": 1153, "LAT": 26.263458, "LON": -80.295349, "USNG": "17R NK 7036205052" }, "geometry": { "type": "Point", "coordinates": [ -80.295349212409974, 26.263457681925924 ] } },
{ "type": "Feature", "properties": { "NAMES_": "HALLANDALE ELEMNTARY", "ADDRESSES": "900 SW 8TH ST", "ZIP": 33009.000000, "CITY_ID": "HD", "PHONE": "457-2520", "FAX": "457-2532", "TYPE": "Tertiary", "OTHER": null, "CAPACITY": 309, "LAT": 25.977298, "LON": -80.161149, "USNG": "17R NJ 8396873439" }, "geometry": { "type": "Point", "coordinates": [ -80.161149313304406, 25.977298502592312 ] } },
{ "type": "Feature", "properties": { "NAMES_": "FLORANADA ELEMENTARY", "ADDRESSES": "5251 NE 14 WAY", "ZIP": 33334.000000, "CITY_ID": "FL", "PHONE": "928-0380", "FAX": "928-0386", "TYPE": "Tertiary", "OTHER": null, "CAPACITY": 395, "LAT": 26.191672, "LON": -80.129249, "USNG": "17R NJ 8700297202" }, "geometry": { "type": "Point", "coordinates": [ -80.129248696066412, 26.191671704848154 ] } },
{ "type": "Feature", "properties": { "NAMES_": "SILVER TRAIL MIDDLE", "ADDRESSES": "18300 SHERIDAN ST", "ZIP": 33029.000000, "CITY_ID": "PP", "PHONE": "704-3150", "FAX": "704-3188", "TYPE": "Primary", "OTHER": null, "CAPACITY": 925, "LAT": 26.028208, "LON": -80.391029, "USNG": "17R NJ 6093078949" }, "geometry": { "type": "Point", "coordinates": [ -80.391028831773838, 26.028207749434149 ] } },
{ "type": "Feature", "properties": { "NAMES_": "FOX TRAIL ELEMENTARY", "ADDRESSES": "1250 NOB HILL RD", "ZIP": 33324.000000, "CITY_ID": "DV", "PHONE": "797-4880", "FAX": "797-8707", "TYPE": "Primary", "OTHER": null, "CAPACITY": 1259, "LAT": 26.104443, "LON": -80.278810, "USNG": "17R NJ 7211287450" }, "geometry": { "type": "Point", "coordinates": [ -80.278810042226141, 26.104443359011032 ] } },
{ "type": "Feature", "properties": { "NAMES_": "CORAL COVE ELEMENTARY", "ADDRESSES": "5100 SW 148 AVE", "ZIP": 33027.000000, "CITY_ID": "MM", "PHONE": "323-7950", "FAX": "323-7990", "TYPE": "Tertiary", "OTHER": null, "CAPACITY": 1289, "LAT": 25.962595, "LON": -80.344723, "USNG": "17R NJ 6560071705" }, "geometry": { "type": "Point", "coordinates": [ -80.344723457468803, 25.962594499231479 ] } },
{ "type": "Feature", "properties": { "NAMES_": "TRADEWINDS ELEMENTARY", "ADDRESSES": "5400 JOHNSON ROAD", "ZIP": 33073.000000, "CITY_ID": "CK", "PHONE": "725-7250", "FAX": "725-7279", "TYPE": "Secondary", "OTHER": null, "CAPACITY": 2091, "LAT": 26.310832, "LON": -80.197404, "USNG": "17R NK 8011010355" }, "geometry": { "type": "Point", "coordinates": [ -80.197403943221616, 26.310831714449641 ] } },
{ "type": "Feature", "properties": { "NAMES_": "MANATEE BAY ELEMENTARY", "ADDRESSES": "19200 SW 36 ST", "ZIP": 33331.000000, "CITY_ID": "WS", "PHONE": "358-6700", "FAX": "358-7415", "TYPE": "Tertiary", "OTHER": null, "CAPACITY": 1254, "LAT": 26.073589, "LON": -80.402958, "USNG": "17R NJ 5971383970" }, "geometry": { "type": "Point", "coordinates": [ -80.402958031609302, 26.073588598689987 ] } },
{ "type": "Feature", "properties": { "NAMES_": "FALCON COVE MIDDLE", "ADDRESSES": "4251 BONAVENTURE BLVD", "ZIP": 33332.000000, "CITY_ID": "WS", "PHONE": "712-1500", "FAX": "712-1526", "TYPE": "Primary", "OTHER": null, "CAPACITY": 998, "LAT": 26.063352, "LON": -80.396046, "USNG": "17R NJ 6041082839" }, "geometry": { "type": "Point", "coordinates": [ -80.396046217122404, 26.063352026959418 ] } },
{ "type": "Feature", "properties": { "NAMES_": "WATKINS ELEMENTARY", "ADDRESSES": "3520 SW 52ND AVE", "ZIP": 33023.000000, "CITY_ID": "PK", "PHONE": "985-2960", "FAX": "985-2959", "TYPE": "Primary", "OTHER": null, "CAPACITY": 395, "LAT": 25.978191, "LON": -80.195748, "USNG": "17R NJ 8050473516" }, "geometry": { "type": "Point", "coordinates": [ -80.195748148009173, 25.978191244362417 ] } },
{ "type": "Feature", "properties": { "NAMES_": "EVERGLADES HIGH", "ADDRESSES": "17100 SW 48 CT", "ZIP": 33027.000000, "CITY_ID": "MM", "PHONE": "680-5480", "FAX": "680-5484", "TYPE": "Primary", "OTHER": null, "CAPACITY": 1122, "LAT": 25.969117, "LON": -80.373461, "USNG": "17R NJ 6271972413" }, "geometry": { "type": "Point", "coordinates": [ -80.373460570905877, 25.969117295701988 ] } },
{ "type": "Feature", "properties": { "NAMES_": "SILVER SHORES ELEMENTARY", "ADDRESSES": "1701 SW 160 AVE", "ZIP": 33027.000000, "CITY_ID": "MM", "PHONE": "680-5486", "FAX": null, "TYPE": "Tertiary", "OTHER": null, "CAPACITY": 1254, "LAT": 25.991388, "LON": -80.359667, "USNG": "17R NJ 6408874887" }, "geometry": { "type": "Point", "coordinates": [ -80.359666671713981, 25.991388293300151 ] } },
{ "type": "Feature", "properties": { "NAMES_": "PANTHER RUN ELEMENTARY", "ADDRESSES": "801 NW 172ND AVE", "ZIP": 33029.000000, "CITY_ID": "PP", "PHONE": "704-3280", "FAX": "450-5023", "TYPE": "Tertiary", "OTHER": null, "CAPACITY": 1259, "LAT": 26.011293, "LON": -80.375597, "USNG": "17R NJ 6248377083" }, "geometry": { "type": "Point", "coordinates": [ -80.375596852882182, 26.011293184827551 ] } },
{ "type": "Feature", "properties": { "NAMES_": "PINES MIDDLE", "ADDRESSES": "200 NW DOUGLAS ROAD", "ZIP": 33024.000000, "CITY_ID": "PP", "PHONE": "437-0577", "FAX": "437-0558", "TYPE": "Tertiary", "OTHER": null, "CAPACITY": 388, "LAT": 26.011149, "LON": -80.265814, "USNG": "17R NJ 7346977125" }, "geometry": { "type": "Point", "coordinates": [ -80.26581360601206, 26.011149486016937 ] } },
{ "type": "Feature", "properties": { "NAMES_": "POMPANO BEACH HIGH", "ADDRESSES": "600 NE 13TH AVE", "ZIP": 33060.000000, "CITY_ID": "PB", "PHONE": "786-7600", "FAX": "786-7877", "TYPE": "Primary", "OTHER": null, "CAPACITY": 268, "LAT": 26.236212, "LON": -80.109352, "USNG": "17R NK 8895702148" }, "geometry": { "type": "Point", "coordinates": [ -80.109351680395477, 26.236211895191811 ] } },
{ "type": "Feature", "properties": { "NAMES_": "MONARCH HIGH", "ADDRESSES": "5050 WILES RD", "ZIP": 33066.000000, "CITY_ID": "CK", "PHONE": "571-7580", "FAX": null, "TYPE": "Primary", "OTHER": null, "CAPACITY": 950, "LAT": 26.285415, "LON": -80.192497, "USNG": "17R NK 8061807543" }, "geometry": { "type": "Point", "coordinates": [ -80.192497132744535, 26.285414847744764 ] } },
{ "type": "Feature", "properties": { "NAMES_": "PARK TRAILS ELEMENTARY", "ADDRESSES": "10700 TRAILS END", "ZIP": 33067.000000, "CITY_ID": "PD", "PHONE": "575-8940", "FAX": "341-8008", "TYPE": "Tertiary", "OTHER": null, "CAPACITY": 395, "LAT": 26.318807, "LON": -80.269538, "USNG": "17R NK 7290511196" }, "geometry": { "type": "Point", "coordinates": [ -80.26953821998606, 26.318807335894615 ] } },
{ "type": "Feature", "properties": { "NAMES_": "PARK LAKES ELEMENTARY", "ADDRESSES": "3925 N SR7", "ZIP": 33319.000000, "CITY_ID": "LL", "PHONE": "714-1200", "FAX": "714-1205", "TYPE": "Primary", "OTHER": null, "CAPACITY": 1259, "LAT": 26.173952, "LON": -80.203771, "USNG": "17R NJ 7956895192" }, "geometry": { "type": "Point", "coordinates": [ -80.203770937762386, 26.173952127049485 ] } },
{ "type": "Feature", "properties": { "NAMES_": "MILLENIUM MIDDLE", "ADDRESSES": "5803 NW 94TH AVE", "ZIP": 33321.000000, "CITY_ID": "TM", "PHONE": "322-3900", "FAX": null, "TYPE": "PrimaryPet", "OTHER": "pet friendly shelter", "CAPACITY": 325, "LAT": 26.196556, "LON": -80.276874, "USNG": "17R NJ 7224997652" }, "geometry": { "type": "Point", "coordinates": [ -80.276874096004477, 26.196555865661871 ] } },
{ "type": "Feature", "properties": { "NAMES_": "SILVER PALMS ELEMENTARY", "ADDRESSES": "1209 NW 155TH AVE", "ZIP": 33028.000000, "CITY_ID": "PP", "PHONE": "704-3100", "FAX": "704-3135", "TYPE": "Secondary", "OTHER": null, "CAPACITY": 2091, "LAT": 26.018488, "LON": -80.348798, "USNG": "17R NJ 6516177893" }, "geometry": { "type": "Point", "coordinates": [ -80.348797642116367, 26.018487562431417 ] } },
{ "type": "Feature", "properties": { "NAMES_": "ORANGE BROOK ELEMENTARY", "ADDRESSES": "715 S 46TH AVE", "ZIP": 33021.000000, "CITY_ID": "HW", "PHONE": "985-2920", "FAX": "985-2937", "TYPE": "Tertiary", "OTHER": null, "CAPACITY": 1294, "LAT": 26.003866, "LON": -80.188625, "USNG": "17R NJ 8119976364" }, "geometry": { "type": "Point", "coordinates": [ -80.188625273111668, 26.003866492710124 ] } },
{ "type": "Feature", "properties": { "NAMES_": "SILVER LAKES ELEMENTARY", "ADDRESSES": "2300 SW 173RD AVE", "ZIP": 33027.000000, "CITY_ID": "MM", "PHONE": "797-4886", "FAX": "797-8707", "TYPE": "Tertiary", "OTHER": null, "CAPACITY": 395, "LAT": 25.986098, "LON": -80.378265, "USNG": "17R NJ 6222974292" }, "geometry": { "type": "Point", "coordinates": [ -80.378264774241586, 25.986098481154968 ] } },
{ "type": "Feature", "properties": { "NAMES_": "COCONUT PALM ELEMENTARY", "ADDRESSES": "13601 MONARCH LAKES BLVD", "ZIP": 33027.000000, "CITY_ID": "MM", "PHONE": "680-5430", "FAX": "680-5490", "TYPE": "Secondary", "OTHER": null, "CAPACITY": 1214, "LAT": 25.986270, "LON": -80.329160, "USNG": "17R NJ 6714474335" }, "geometry": { "type": "Point", "coordinates": [ -80.329160317603467, 25.986270497542161 ] } },
{ "type": "Feature", "properties": { "NAMES_": "BEACHSIDE MONTESSORI VILLAGE", "ADDRESSES": "2230 LINCOLN ST", "ZIP": 33020.000000, "CITY_ID": "HW", "PHONE": "797-4880", "FAX": null, "TYPE": "Secondary", "OTHER": null, "CAPACITY": 1060, "LAT": 26.016806, "LON": -80.153839, "USNG": "17R NJ 8467177819" }, "geometry": { "type": "Point", "coordinates": [ -80.153838771527347, 26.016806342849225 ] } },
{ "type": "Feature", "properties": { "NAMES_": "EVERGLADES ELEMENTARY", "ADDRESSES": "2900 BONAVENTURE BLVD", "ZIP": 33331.000000, "CITY_ID": "WS", "PHONE": "384-2789", "FAX": "384-2797", "TYPE": "Secondary", "OTHER": null, "CAPACITY": 1214, "LAT": 26.084878, "LON": -80.388587, "USNG": "17R NJ 6114585227" }, "geometry": { "type": "Point", "coordinates": [ -80.388587412337458, 26.084877997536328 ] } },
{ "type": "Feature", "properties": { "NAMES_": "LAKESIDE ELEMENTARY", "ADDRESSES": "900 NW 136TH AVE", "ZIP": 33028.000000, "CITY_ID": "PP", "PHONE": "797-4251", "FAX": "797-8707", "TYPE": "Secondary", "OTHER": null, "CAPACITY": 2091, "LAT": 26.013102, "LON": -80.331043, "USNG": "17R NJ 6694177306" }, "geometry": { "type": "Point", "coordinates": [ -80.331042852957708, 26.013101627108977 ] } },
{ "type": "Feature", "properties": { "NAMES_": "ARTHUR ASHE MIDDLE\/ROCK ISLAND ELEM.", "ADDRESSES": "1701 NW 23 AVE", "ZIP": 33311.000000, "CITY_ID": "FL", "PHONE": null, "FAX": null, "TYPE": "Primary", "OTHER": null, "CAPACITY": 1337, "LAT": 26.148059, "LON": -80.171130, "USNG": "17R NJ 8284892344" }, "geometry": { "type": "Point", "coordinates": [ -80.172065634303266, 26.149199437957712 ] } },
{ "type": "Feature", "properties": { "NAMES_": "WEST BROWARD HIGH", "ADDRESSES": "500 NW 209TH AVE", "ZIP": 33029.000000, "CITY_ID": "PP", "PHONE": null, "FAX": null, "TYPE": "Primary", "OTHER": null, "CAPACITY": 714, "LAT": 26.011035, "LON": -80.429992, "USNG": "17R NJ 5704077030" }, "geometry": { "type": "Point", "coordinates": [ -80.429992383315422, 26.011035429554202 ] } },
{ "type": "Feature", "properties": { "NAMES_": "LYONS CREEK MIDDLE", "ADDRESSES": "4333 SOL PRESS BLVD", "ZIP": 33073.000000, "CITY_ID": "CK", "PHONE": "786-7850", "FAX": "786-7858", "TYPE": "Primary", "OTHER": null, "CAPACITY": 998, "LAT": 26.310214, "LON": -80.181519, "USNG": "17R NK 8169710297" }, "geometry": { "type": "Point", "coordinates": [ -80.181519292358985, 26.310214192999982 ] } },
{ "type": "Feature", "properties": { "NAMES_": "LIBERTY ELEMENTARY", "ADDRESSES": "2450 BANKS RD", "ZIP": 33063.000000, "CITY_ID": "MG", "PHONE": "935-8420", "FAX": "935-8455", "TYPE": "Tertiary", "OTHER": null, "CAPACITY": 1254, "LAT": 26.258726, "LON": -80.193918, "USNG": "17R NK 8049404587" }, "geometry": { "type": "Point", "coordinates": [ -80.193918265486062, 26.258726188135416 ] } },
{ "type": "Feature", "properties": { "NAMES_": "SUNSET LAKES ELEMENTARY", "ADDRESSES": "18400 SW 25 ST", "ZIP": 33027.000000, "CITY_ID": "MM", "PHONE": "704-3300", "FAX": null, "TYPE": "Tertiary", "OTHER": null, "CAPACITY": 1254, "LAT": 25.984687, "LON": -80.392835, "USNG": "17R NJ 6077274129" }, "geometry": { "type": "Point", "coordinates": [ -80.392835167818063, 25.984686593076546 ] } },
{ "type": "Feature", "properties": { "NAMES_": "DOLPHIN BAY ELEMENTARY", "ADDRESSES": "16450 MIRAMAR PARKWAY", "ZIP": 33027.000000, "CITY_ID": "MM", "PHONE": null, "FAX": null, "TYPE": "Tertiary", "OTHER": null, "CAPACITY": 1268, "LAT": 25.977496, "LON": -80.366275, "USNG": "17R NJ 6343473345" }, "geometry": { "type": "Point", "coordinates": [ -80.366275151677769, 25.977495862841653 ] } },
{ "type": "Feature", "properties": { "NAMES_": "PARKSIDE ELEMENTARY", "ADDRESSES": "10257 NW 29TH ST", "ZIP": 33065.000000, "CITY_ID": "CS", "PHONE": "786-7850", "FAX": "786-7858", "TYPE": "Secondary", "OTHER": null, "CAPACITY": 1214, "LAT": 26.267561, "LON": -80.262934, "USNG": "17R NK 7359705524" }, "geometry": { "type": "Point", "coordinates": [ -80.262934088755344, 26.267561502853454 ] } },
{ "type": "Feature", "properties": { "NAMES_": "NEW RENAISSANCE MIDDLE", "ADDRESSES": "10701 MIRAMAR BLVD", "ZIP": 33027.000000, "CITY_ID": "MM", "PHONE": "885-4440", "FAX": "885-4290", "TYPE": "Primary", "OTHER": null, "CAPACITY": 817, "LAT": 25.986689, "LON": -80.288417, "USNG": "17R NJ 7122274403" }, "geometry": { "type": "Point", "coordinates": [ -80.288417204402762, 25.98668868375308 ] } },
{ "type": "Feature", "properties": { "NAMES_": "GATOR RUN ELEMENTARY", "ADDRESSES": "1101 ARVIDA PKWY", "ZIP": 33326.000000, "CITY_ID": "WS", "PHONE": "797-4794", "FAX": "797-8707", "TYPE": "Secondary", "OTHER": null, "CAPACITY": 1214, "LAT": 26.127821, "LON": -80.418746, "USNG": "17R NJ 5810889969" }, "geometry": { "type": "Point", "coordinates": [ -80.418745561185233, 26.127820872104849 ] } }
]
}
